,City,Country,Date,Lat,Lng,Max Temp,Humidity,Cloudiness,Wind Speed,Current Description,Rain Inches (last 3 hrs),Snow Inches (last 3 hrs)
0,Sibolga,ID,2020-02-23 21:25:27,1.74,98.78,70.74,89,0,4.03,clear sky,0.0,0.0
1,Punta Arenas,CL,2020-02-23 21:24:05,-53.15,-70.92,55.4,62,75,31.09,broken clouds,0.0,0.0
2,Cidreira,BR,2020-02-23 21:25:27,-30.18,-50.21,71.91,73,1,17.29,clear sky,0.0,0.0
3,Port Hardy,CA,2020-02-23 21:25:27,50.7,-127.42,41.0,93,90,2.24,light rain,0.0,0.0
4,Port Alfred,ZA,2020-02-23 21:25:28,-33.59,26.89,60.01,83,50,2.01,scattered clouds,0.0,0.0
5,Yellowknife,CA,2020-02-23 21:29:25,62.46,-114.35,-2.99,63,20,6.93,few clouds,0.0,0.0
6,Utica,US,2020-02-23 21:30:11,43.1,-75.23,48.0,33,1,9.17,clear sky,0.0,0.0
7,Sabzevar,IR,2020-02-23 21:33:43,36.21,57.68,50.31,50,0,3.31,clear sky,0.0,0.0
8,Avarua,CK,2020-02-23 21:33:44,-21.21,-159.78,78.8,94,100,4.7,moderate rain,0.0,0.0
9,Saskylakh,RU,2020-02-23 21:33:44,71.92,114.08,5.74,91,100,8.63,overcast clouds,0.0,0.0
10,Anadyr,RU,2020-02-23 21:33:44,64.75,177.48,-20.0,75,0,2.24,clear sky,0.0,0.0
11,Vaitupu,RU,2020-02-23 21:33:44,64.75,177.48,-20.0,75,0,2.24,clear sky,0.0,0.0
12,Makat,KZ,2020-02-23 21:33:44,47.65,53.35,38.14,92,100,14.14,light rain,0.31,0.0
13,Nioro,GM,2020-02-23 21:33:45,13.35,-15.75,86.31,31,96,8.48,overcast clouds,0.0,0.0
14,Marawi,PH,2020-02-23 21:33:45,8.0,124.29,73.0,87,42,5.99,scattered clouds,0.0,0.0
15,Taolanaro,PH,2020-02-23 21:33:45,8.0,124.29,73.0,87,42,5.99,scattered clouds,0.0,0.0
16,Qaanaaq,GL,2020-02-23 21:33:45,77.48,-69.36,-19.41,68,0,7.14,clear sky,0.0,0.0
17,Bloomingdale,US,2020-02-23 21:25:19,27.89,-82.24,78.01,41,20,5.82,few clouds,0.0,0.0
18,Kodiak,US,2020-02-23 21:20:44,57.79,-152.41,24.8,35,1,18.34,clear sky,0.0,0.0
19,Jamestown,US,2020-02-23 21:19:25,42.1,-79.24,53.6,26,1,16.11,clear sky,0.0,0.0
20,Buckingham,GB,2020-02-23 21:25:31,52.0,-0.99,45.0,75,99,1.12,overcast clouds,0.0,0.0
21,Mataura,NZ,2020-02-23 21:25:31,-46.19,168.86,60.01,79,77,8.99,broken clouds,0.0,0.0
22,Tsihombe,NZ,2020-02-23 21:25:31,-46.19,168.86,60.01,79,77,8.99,broken clouds,0.0,0.0
23,Carnarvon,AU,2020-02-23 21:23:48,-24.87,113.63,69.8,88,0,4.7,clear sky,0.0,0.0
24,Albany,US,2020-02-23 21:21:41,42.6,-73.97,51.8,29,75,5.82,broken clouds,0.0,0.0
25,Abrau-Dyurso,RU,2020-02-23 21:25:32,44.69,37.59,44.6,65,40,22.37,scattered clouds,0.0,0.0
26,Ushuaia,AR,2020-02-23 21:32:00,-54.8,-68.3,46.4,87,90,20.8,overcast clouds,0.0,0.0
27,Mar Del Plata,AR,2020-02-23 21:25:32,-38.0,-57.56,77.0,50,20,11.41,few clouds,0.0,0.0
28,Atuona,PF,2020-02-23 21:33:48,-9.8,-139.03,81.61,76,8,13.73,clear sky,0.0,0.0
29,Port-Gentil,GA,2020-02-23 21:25:32,-0.72,8.78,82.4,88,20,5.82,few clouds,0.0,0.0
30,Yambio,SS,2020-02-23 21:25:33,4.57,28.4,79.09,42,24,3.15,few clouds,0.0,0.0
31,Bekobod,UZ,2020-02-23 21:25:33,40.22,69.27,48.2,81,90,2.24,mist,0.0,0.0
32,Tuatapere,NZ,2020-02-23 21:25:33,-46.13,167.68,60.01,79,72,8.99,broken clouds,0.0,0.0
33,Hermanus,ZA,2020-02-23 21:33:48,-34.42,19.23,66.99,76,0,8.99,clear sky,0.0,0.0
34,Shirvan,AZ,2020-02-23 21:25:33,39.95,48.9,46.9,82,37,8.5,scattered clouds,0.0,0.0
35,Cherskiy,RU,2020-02-23 21:25:34,68.75,161.3,-27.56,89,48,6.17,scattered clouds,0.0,0.0
36,Pevek,RU,2020-02-23 21:25:34,69.7,170.31,-13.94,99,100,5.64,overcast clouds,0.0,0.0
37,Nanakuli,US,2020-02-23 21:25:34,21.39,-158.15,80.6,73,90,3.36,overcast clouds,0.0,0.0
38,Beira,MZ,2020-02-23 21:25:34,-19.84,34.84,84.2,79,75,21.92,broken clouds,0.0,0.0
39,Dikson,RU,2020-02-23 21:25:34,73.51,80.55,28.47,92,100,27.6,light snow,0.0,0.25
40,Goderich,CA,2020-02-23 21:25:35,43.75,-81.72,43.0,70,17,15.99,few clouds,0.0,0.0
41,Hobart,AU,2020-02-23 21:24:57,-42.88,147.33,57.99,76,75,5.82,broken clouds,0.0,0.0
42,Ilulissat,GL,2020-02-23 21:25:35,69.22,-51.1,-2.2,58,0,6.93,clear sky,0.0,0.0
43,Cockburn Town,TC,2020-02-23 21:23:56,21.46,-71.14,77.0,65,75,16.11,broken clouds,0.0,0.0
44,Tasiilaq,GL,2020-02-23 21:25:35,65.61,-37.64,12.2,66,60,13.87,broken clouds,0.0,0.0
45,Khatanga,RU,2020-02-23 21:25:36,71.97,102.5,14.29,91,96,15.57,light snow,0.0,0.25
46,Barrow,US,2020-02-23 21:25:36,71.29,-156.79,-27.4,74,1,10.29,clear sky,0.0,0.0
47,Iqaluit,CA,2020-02-23 21:25:36,63.75,-68.51,-25.01,67,20,10.29,few clouds,0.0,0.0
48,Rikitea,PF,2020-02-23 21:33:51,-23.12,-134.97,79.2,70,0,6.13,clear sky,0.0,0.0
49,Koindu,GN,2020-02-23 21:25:36,8.44,-10.33,82.87,45,28,2.89,scattered clouds,0.0,0.0
50,Samarai,PG,2020-02-23 21:23:05,-10.62,150.67,78.55,89,25,3.18,light rain,1.0,0.0
51,Illoqqortoormiut,PG,2020-02-23 21:23:05,-10.62,150.67,78.55,89,25,3.18,light rain,0.0,0.0
52,Hastings,GB,2020-02-23 21:21:30,50.86,0.57,48.0,81,100,5.82,overcast clouds,0.0,0.0
53,Bambous Virieux,MU,2020-02-23 21:20:47,-20.34,57.76,77.0,88,40,4.7,scattered clouds,0.0,0.0
54,Rondonopolis,BR,2020-02-23 21:25:37,-16.47,-54.64,78.04,93,100,4.63,moderate rain,5.25,0.0
55,Guiratinga,BR,2020-02-23 21:25:38,-16.35,-53.76,78.26,92,100,4.41,moderate rain,3.69,0.0
56,Tuktoyaktuk,CA,2020-02-23 21:33:53,69.45,-133.04,-5.8,70,75,13.87,light snow,0.0,0.0
57,Seminole,US,2020-02-23 21:25:38,28.71,-81.21,77.0,46,40,12.75,scattered clouds,0.0,0.0
58,Mizan Teferi,ET,2020-02-23 21:25:38,6.98,35.58,68.0,80,40,3.58,scattered clouds,0.0,0.0
59,Olonets,RU,2020-02-23 21:25:38,60.98,32.97,34.25,96,100,8.39,light snow,0.0,0.31
60,Georgetown,MY,2020-02-23 21:20:40,5.41,100.34,78.8,69,20,6.93,few clouds,0.0,0.0
61,Olafsvik,IS,2020-02-23 21:25:39,64.89,-23.71,30.24,95,100,6.78,snow,0.0,2.31
62,Balabac,PH,2020-02-23 21:25:39,7.99,117.06,79.74,78,8,14.94,light rain,0.19,0.0
63,Ngukurr,PH,2020-02-23 21:25:39,7.99,117.06,79.74,78,8,14.94,light rain,0.0,0.0
64,Talnakh,RU,2020-02-23 21:25:39,69.49,88.4,15.8,92,75,29.08,shower snow,0.0,0.0
65,Itaituba,BR,2020-02-23 21:25:40,-4.28,-55.98,86.0,74,40,8.05,scattered clouds,0.0,0.0
66,Salalah,OM,2020-02-23 21:25:40,17.02,54.09,75.2,69,0,4.7,clear sky,0.0,0.0
67,Reconquista,AR,2020-02-23 21:25:40,-29.15,-59.65,85.71,23,0,5.91,clear sky,0.0,0.0
68,Taree,AU,2020-02-23 21:25:40,-31.9,152.47,68.0,100,90,4.7,light rain,0.0,0.0
69,Baruun-Urt,MN,2020-02-23 21:25:40,46.68,113.28,13.24,84,100,5.7,overcast clouds,0.0,0.0
70,Barentsburg,MN,2020-02-23 21:25:40,46.68,113.28,13.24,84,100,5.7,overcast clouds,0.0,0.0
71,Roma,US,2020-02-23 21:20:59,43.21,-75.46,48.0,33,1,9.17,clear sky,0.0,0.0
72,Kruisfontein,ZA,2020-02-23 21:25:41,-34.0,24.73,56.48,78,0,4.38,clear sky,0.0,0.0
73,New Norfolk,AU,2020-02-23 21:33:56,-42.78,147.06,59.0,76,75,5.82,broken clouds,0.0,0.0
74,Nara,JP,2020-02-23 21:25:41,34.69,135.8,41.0,86,20,2.24,few clouds,0.0,0.0
75,Piacabucu,BR,2020-02-23 21:25:42,-10.41,-36.43,81.18,80,98,9.33,overcast clouds,0.0,0.0
76,Margate,GB,2020-02-23 21:21:17,51.38,1.39,48.0,60,100,3.36,overcast clouds,0.0,0.0
77,Cape Town,ZA,2020-02-23 21:33:57,-33.93,18.42,66.99,59,0,18.34,clear sky,0.0,0.0
78,Mocuba,MZ,2020-02-23 21:25:42,-16.84,36.99,74.43,96,100,1.61,overcast clouds,0.0,0.0
79,Ponta Delgada,PT,2020-02-23 21:25:42,37.73,-25.67,59.0,82,20,3.36,few clouds,0.0,0.0
80,Norsup,VU,2020-02-23 21:25:43,-16.07,167.38,86.0,70,40,6.93,scattered clouds,0.0,0.0
81,Port Blair,IN,2020-02-23 21:22:56,11.67,92.75,75.2,88,40,4.7,mist,0.0,0.0
82,Airai,TL,2020-02-23 21:23:47,-8.93,125.41,66.69,82,0,4.43,clear sky,0.0,0.0
83,Sevierville,US,2020-02-23 21:25:43,35.87,-83.56,55.4,32,40,5.82,scattered clouds,0.0,0.0
84,Hilo,US,2020-02-23 21:24:09,19.73,-155.09,78.8,61,75,12.75,broken clouds,0.0,0.0
85,Saint-Pierre,RE,2020-02-23 21:25:29,-21.34,55.48,75.2,78,0,5.82,clear sky,0.0,0.0
86,Okha,RU,2020-02-23 21:25:44,53.57,142.95,-5.69,100,2,7.43,clear sky,0.0,0.0
87,Naze,JP,2020-02-23 21:25:44,28.37,129.48,50.0,87,0,4.7,clear sky,0.0,0.0
88,Puerto Berrio,CO,2020-02-23 21:25:44,6.49,-74.4,84.88,63,70,4.54,broken clouds,0.0,0.0
89,Amderma,CO,2020-02-23 21:25:44,6.49,-74.4,84.88,63,70,4.54,broken clouds,0.0,0.0
90,East London,ZA,2020-02-23 21:25:44,-33.02,27.91,66.15,60,73,4.21,broken clouds,0.0,0.0
91,Madingou,CG,2020-02-23 21:25:45,-4.15,13.55,74.34,93,100,2.28,overcast clouds,0.0,0.0
92,Krasnoselkup,RU,2020-02-23 21:25:40,65.7,82.47,25.3,89,100,21.99,light snow,0.0,0.13
93,Dwarka,IN,2020-02-23 21:25:45,22.24,68.97,76.08,58,0,12.44,clear sky,0.0,0.0
94,Tautira,PF,2020-02-23 21:25:45,-17.73,-149.15,87.8,58,20,16.11,few clouds,0.0,0.0
95,Severo-Kurilsk,RU,2020-02-23 21:25:45,50.68,156.12,24.21,95,100,35.48,snow,0.0,2.75
96,Avera,US,2020-02-23 21:25:46,33.19,-82.53,62.6,23,40,4.7,scattered clouds,0.0,0.0
97,Paamiut,GL,2020-02-23 21:25:46,61.99,-49.67,16.54,65,100,5.82,overcast clouds,0.0,0.0
98,Alice Springs,AU,2020-02-23 21:24:05,-23.7,133.88,66.2,39,99,2.24,overcast clouds,0.0,0.0
99,Zhangye,CN,2020-02-23 21:20:51,38.93,100.45,31.23,41,94,2.53,overcast clouds,0.0,0.0
100,San Mateo Del Mar,MX,2020-02-23 21:25:46,16.2,-95.0,81.9,67,0,23.78,clear sky,0.0,0.0
101,Port Victoria,KE,2020-02-23 21:25:47,0.09,33.98,75.42,78,100,17.43,light rain,1.06,0.0
102,Pringsewu,ID,2020-02-23 21:25:47,-5.36,104.97,71.24,96,7,4.45,clear sky,0.0,0.0
103,Upernavik,GL,2020-02-23 21:25:47,72.79,-56.15,-17.82,81,0,7.31,clear sky,0.0,0.0
104,Belaya Gora,RU,2020-02-23 21:25:47,68.53,146.42,-13.63,97,100,3.2,overcast clouds,0.0,0.0
105,Komsomolskiy,UZ,2020-02-23 21:25:47,40.43,71.72,50.0,81,75,6.93,mist,0.0,0.0
106,Bluff,NZ,2020-02-23 21:25:48,-46.6,168.33,60.01,79,66,8.99,broken clouds,0.0,0.0
107,Sakakah,SA,2020-02-23 21:25:48,29.97,40.21,60.8,29,100,8.05,overcast clouds,0.0,0.0
108,Butaritari,KI,2020-02-23 21:25:48,3.07,172.79,84.88,77,76,12.91,moderate rain,6.0,0.0
109,Srandakan,ID,2020-02-23 21:25:48,-7.94,110.25,75.56,83,11,2.68,few clouds,0.0,0.0
110,Bon Accord,CA,2020-02-23 21:25:48,53.83,-113.42,33.8,37,1,2.24,snow,0.0,0.0
111,Busselton,AU,2020-02-23 21:25:49,-33.65,115.33,68.0,47,72,14.25,broken clouds,0.0,0.0
112,Paramonga,PE,2020-02-23 21:25:49,-10.67,-77.83,74.01,81,9,9.44,clear sky,0.0,0.0
113,Goundam,ML,2020-02-23 21:25:49,16.41,-3.67,84.87,8,0,14.76,clear sky,0.0,0.0
114,Parana,AR,2020-02-23 21:25:49,-31.73,-60.52,81.0,45,0,1.01,clear sky,0.0,0.0
115,Arraial Do Cabo,BR,2020-02-23 21:34:04,-22.97,-42.03,77.0,65,75,4.7,broken clouds,0.0,0.0
116,Freeport,US,2020-02-23 21:25:50,40.66,-73.58,55.99,27,1,13.87,clear sky,0.0,0.0
117,Atar,MR,2020-02-23 21:25:50,20.52,-13.05,84.87,16,100,7.43,overcast clouds,0.0,0.0
118,Bereda,ES,2020-02-23 21:25:50,43.27,-7.54,48.0,100,1,3.36,clear sky,0.0,0.0
119,Victoria,HK,2020-02-23 21:24:44,22.29,114.16,68.0,63,20,25.28,few clouds,0.0,0.0
120,Klaksvik,FO,2020-02-23 21:30:03,62.23,-6.59,37.4,55,25,23.04,scattered clouds,0.0,0.0
121,Torbay,CA,2020-02-23 21:25:51,47.67,-52.73,34.0,81,20,13.87,few clouds,0.0,0.0
122,Mys Shmidta,CA,2020-02-23 21:25:51,47.67,-52.73,34.0,81,20,13.87,few clouds,0.0,0.0
123,Kaitangata,NZ,2020-02-23 21:25:51,-46.28,169.85,62.01,66,100,11.01,overcast clouds,0.0,0.0
124,Faanui,PF,2020-02-23 21:25:51,-16.48,-151.75,82.76,72,55,11.88,broken clouds,0.0,0.0
125,Abu Samrah,SY,2020-02-23 21:25:51,35.3,37.18,50.95,71,0,8.97,clear sky,0.0,0.0
126,Hendijan,SY,2020-02-23 21:25:51,35.3,37.18,50.95,71,0,8.97,clear sky,0.0,0.0
127,Meulaboh,ID,2020-02-23 21:25:52,4.14,96.13,81.03,81,5,7.7,clear sky,0.0,0.0
128,Toftir,ID,2020-02-23 21:25:52,4.14,96.13,81.03,81,5,7.7,clear sky,0.0,0.0
129,Castro,BR,2020-02-23 21:34:07,-24.79,-50.01,67.93,78,90,2.66,overcast clouds,0.0,0.0
130,Sao Miguel Do Oeste,BR,2020-02-23 21:34:07,-24.79,-50.01,67.93,78,90,2.66,overcast clouds,0.0,0.0
131,Thompson,CA,2020-02-23 21:23:42,55.74,-97.86,17.6,67,90,6.93,overcast clouds,0.0,0.0
132,Samusu,CA,2020-02-23 21:23:42,55.74,-97.86,17.6,67,90,6.93,overcast clouds,0.0,0.0
133,Flin Flon,CA,2020-02-23 21:25:53,54.77,-101.86,35.6,59,40,8.05,scattered clouds,0.0,0.0
134,Oranjestad,AW,2020-02-23 21:23:54,12.52,-70.03,84.2,58,40,12.75,scattered clouds,0.0,0.0
135,Arman,RU,2020-02-23 21:25:53,59.7,150.17,-2.31,98,38,4.09,scattered clouds,0.0,0.0
136,Montpellier,FR,2020-02-23 21:25:54,43.61,3.88,60.8,58,0,4.7,clear sky,0.0,0.0
137,Egvekinot,RU,2020-02-23 21:25:54,66.32,-179.17,-29.07,88,0,1.74,clear sky,0.0,0.0
138,Araguatins,RU,2020-02-23 21:25:54,66.32,-179.17,-29.07,88,0,1.74,clear sky,0.0,0.0
139,Beaver Dam,US,2020-02-23 21:25:54,43.46,-88.84,50.0,49,1,10.29,clear sky,0.0,0.0
140,Altay,CN,2020-02-23 21:25:54,47.87,88.12,7.88,78,50,4.32,scattered clouds,0.0,0.0
141,North Platte,US,2020-02-23 21:25:55,41.12,-100.77,53.6,27,90,17.22,overcast clouds,0.0,0.0
142,Aklavik,CA,2020-02-23 21:34:09,68.22,-135.01,-2.2,70,75,5.82,light snow,0.0,0.0
143,Saint-Philippe,RE,2020-02-23 21:25:55,-21.36,55.77,75.2,78,0,5.82,clear sky,0.0,0.0
144,Flinders,AU,2020-02-23 21:25:55,-34.58,150.86,72.0,68,0,6.93,clear sky,0.0,0.0
145,Karratha,AU,2020-02-23 21:25:55,-20.74,116.85,81.48,74,11,16.73,few clouds,0.0,0.0
146,Rocha,UY,2020-02-23 21:25:56,-34.48,-54.33,78.1,41,0,7.94,clear sky,0.0,0.0
147,Atikokan,CA,2020-02-23 21:25:56,48.76,-91.62,30.4,88,100,13.78,light snow,0.0,0.31
148,Anito,PH,2020-02-23 21:25:56,12.45,125.29,80.15,81,2,20.22,light rain,0.94,0.0
149,Nisko,PL,2020-02-23 21:25:56,50.52,22.14,50.0,87,75,20.8,broken clouds,0.0,0.0
150,Ostrovnoy,RU,2020-02-23 21:25:56,68.05,39.51,29.05,95,100,15.93,light snow,0.0,0.44
151,Palabuhanratu,RU,2020-02-23 21:25:56,68.05,39.51,29.05,95,100,15.93,light snow,0.0,0.0
152,Belushya Guba,RU,2020-02-23 21:25:56,68.05,39.51,29.05,95,100,15.93,light snow,0.0,0.0
153,Puerto Maldonado,PE,2020-02-23 21:25:57,-12.6,-69.18,33.8,100,40,4.7,scattered clouds,0.0,0.0
154,Tongliao,CN,2020-02-23 21:25:57,43.61,122.27,23.97,66,0,5.64,clear sky,0.0,0.0
155,Port-Cartier,CA,2020-02-23 21:21:03,50.03,-66.87,30.2,86,75,4.7,broken clouds,0.0,0.0
156,Los Llanos De Aridane,ES,2020-02-23 21:25:58,28.66,-17.92,73.4,56,90,6.93,haze,0.0,0.0
157,Pisco,PE,2020-02-23 21:21:00,-13.7,-76.22,78.01,30,75,8.05,broken clouds,0.0,0.0
158,Orangeburg,US,2020-02-23 21:25:58,33.49,-80.86,62.6,25,1,4.88,clear sky,0.0,0.0
159,Nanfeng,CN,2020-02-23 21:25:58,23.74,111.8,62.83,75,63,2.75,broken clouds,0.0,0.0
160,Kaeo,NZ,2020-02-23 21:25:58,-35.1,173.78,66.0,65,0,7.0,clear sky,0.0,0.0
161,Puerto Ayora,EC,2020-02-23 21:34:13,-0.74,-90.35,84.2,74,75,10.29,broken clouds,0.0,0.0
162,Moundsville,US,2020-02-23 21:25:59,39.92,-80.74,53.01,25,90,11.41,overcast clouds,0.0,0.0
163,Tambopata,PE,2020-02-23 21:25:59,-12.73,-69.18,33.8,100,40,4.7,scattered clouds,0.0,0.0
164,Vaini,TO,2020-02-23 21:29:26,-21.2,-175.2,80.6,88,40,9.17,scattered clouds,0.0,0.0
165,Bredasdorp,ZA,2020-02-23 21:25:59,-34.53,20.04,66.2,55,0,10.29,clear sky,0.0,0.0
166,Leningradskiy,RU,2020-02-23 21:34:14,69.38,178.42,-14.89,72,100,5.88,overcast clouds,0.0,0.0
167,Mwinilunga,ZM,2020-02-23 21:26:00,-11.74,24.43,63.21,96,100,3.69,overcast clouds,0.0,0.0
168,Attawapiskat,ZM,2020-02-23 21:26:00,-11.74,24.43,63.21,96,100,3.69,overcast clouds,0.0,0.0
169,Minab,IR,2020-02-23 21:26:00,27.15,57.08,68.0,94,40,4.7,mist,0.0,0.0
170,Milkovo,RU,2020-02-23 21:26:00,54.72,158.62,-4.31,99,100,1.34,light snow,0.0,0.13
171,Lebu,CL,2020-02-23 21:26:00,-37.62,-73.65,63.63,63,0,9.86,clear sky,0.0,0.0
172,Kapaa,US,2020-02-23 21:34:15,22.08,-159.32,79.0,69,1,8.05,clear sky,0.0,0.0
173,Kulhudhuffushi,MV,2020-02-23 21:26:01,6.62,73.07,81.81,76,100,11.65,overcast clouds,0.0,0.0
174,Waddan,LY,2020-02-23 21:26:01,29.16,16.14,52.07,64,0,5.08,clear sky,0.0,0.0
175,Lokoja,NG,2020-02-23 21:26:01,7.8,6.74,84.0,19,19,2.01,few clouds,0.0,0.0
176,Port Lincoln,AU,2020-02-23 21:26:01,-34.73,135.87,65.64,85,0,6.53,clear sky,0.0,0.0
177,Nikolskoye,RU,2020-02-23 21:26:02,59.7,30.79,37.4,86,90,8.95,light intensity shower rain,0.0,0.0
178,Sao Joao Da Barra,BR,2020-02-23 21:26:02,-21.64,-41.05,77.0,69,100,4.7,overcast clouds,0.0,0.0
179,Ayan,RU,2020-02-23 21:26:02,56.45,138.17,-1.17,74,0,4.76,clear sky,0.0,0.0
180,Lompoc,US,2020-02-23 21:22:36,34.64,-120.46,64.99,63,1,16.11,clear sky,0.0,0.0
181,Kolosovka,RU,2020-02-23 21:26:02,56.47,73.61,6.19,97,96,4.03,overcast clouds,0.0,0.0
182,Aswan,EG,2020-02-23 21:26:03,24.09,32.91,62.6,32,100,12.75,overcast clouds,0.0,0.0
183,Malakal,SS,2020-02-23 21:26:03,9.53,31.66,85.84,9,32,9.6,scattered clouds,0.0,0.0
184,Tiksi,RU,2020-02-23 21:26:03,71.69,128.87,-8.19,87,100,7.85,overcast clouds,0.0,0.0
185,Vila Velha,BR,2020-02-23 21:24:53,-20.33,-40.29,77.0,69,90,13.87,overcast clouds,0.0,0.0
186,Bira,RU,2020-02-23 21:26:03,49.0,132.47,7.27,89,100,1.34,overcast clouds,0.0,0.0
187,Fort Nelson,CA,2020-02-23 21:34:18,58.81,-122.7,28.4,42,20,2.24,few clouds,0.0,0.0
188,Rach Gia,VN,2020-02-23 21:26:04,10.02,105.08,73.4,83,0,5.82,clear sky,0.0,0.0
189,Nawa,IN,2020-02-23 21:26:04,27.02,75.0,59.86,66,0,5.61,clear sky,0.0,0.0
190,Caravelas,BR,2020-02-23 21:26:04,-17.71,-39.25,79.25,85,100,14.43,light rain,0.13,0.0
191,Basco,PH,2020-02-23 21:26:04,20.45,121.97,74.84,75,66,21.39,light rain,0.25,0.0
192,Quatre Cocos,MU,2020-02-23 21:26:05,-20.21,57.76,77.0,88,40,4.7,scattered clouds,0.0,0.0
193,Acari,PE,2020-02-23 21:26:05,-15.43,-74.62,74.8,66,60,7.67,broken clouds,0.0,0.0
194,Bayir,TR,2020-02-23 21:26:05,37.27,28.22,41.0,86,0,5.82,clear sky,0.0,0.0
195,Oxford,GB,2020-02-23 21:21:44,51.75,-1.26,46.99,75,100,1.12,overcast clouds,0.0,0.0
196,Bethel,US,2020-02-23 21:29:34,41.37,-73.41,54.0,20,1,10.29,clear sky,0.0,0.0
197,Maceio,BR,2020-02-23 21:25:33,-9.67,-35.74,80.6,83,20,10.29,few clouds,0.0,0.0
198,Bandarbeyla,SO,2020-02-23 21:25:06,9.49,50.81,78.08,75,100,16.04,overcast clouds,0.0,0.0
199,Nizwa,OM,2020-02-23 21:26:06,22.93,57.53,67.59,49,3,2.39,clear sky,0.0,0.0
200,Sitka,US,2020-02-23 21:26:06,57.05,-135.33,33.8,93,90,5.82,light rain,0.0,0.0
201,Abalak,RU,2020-02-23 21:26:06,58.13,68.59,18.48,96,6,6.42,clear sky,0.0,0.0
202,Natal,BR,2020-02-23 21:26:07,-5.79,-35.21,84.2,83,20,11.41,few clouds,0.0,0.0
203,Buraydah,SA,2020-02-23 21:26:07,26.33,43.98,68.0,49,30,9.17,scattered clouds,0.0,0.0
204,Codrington,AU,2020-02-23 21:26:07,-38.27,141.97,62.26,89,97,10.07,overcast clouds,0.0,0.0
205,Port Hedland,AU,2020-02-23 21:26:07,-20.32,118.57,78.8,78,70,6.93,broken clouds,0.0,0.0
206,Karauzyak,AU,2020-02-23 21:26:07,-20.32,118.57,78.8,78,70,6.93,broken clouds,0.0,0.0
207,Ozinki,RU,2020-02-23 21:26:08,51.18,49.68,32.29,97,100,16.17,light snow,0.0,1.06
208,Mahajanga,MG,2020-02-23 21:26:08,-15.72,46.32,77.0,94,20,2.24,few clouds,0.0,0.0
209,Neuquen,AR,2020-02-23 21:24:09,-38.95,-68.06,89.6,22,40,6.93,scattered clouds,0.0,0.0
210,Puerto Rico,AR,2020-02-23 21:26:08,-26.8,-55.02,85.6,36,35,3.22,scattered clouds,0.0,0.0
211,Tazovskiy,RU,2020-02-23 21:26:08,67.47,78.7,26.74,91,100,17.36,light snow,0.0,0.19
212,Saldanha,ZA,2020-02-23 21:26:09,-33.01,17.94,71.6,46,0,4.7,clear sky,0.0,0.0
213,Nanortalik,GL,2020-02-23 21:26:09,60.14,-45.24,27.72,79,100,1.72,light snow,0.0,0.94
214,Camana,PE,2020-02-23 21:26:09,-16.62,-72.71,72.27,70,57,9.78,broken clouds,0.0,0.0
215,Clyde River,CA,2020-02-23 21:24:36,70.47,-68.59,-20.2,75,75,12.75,broken clouds,0.0,0.0
216,Ponta Do Sol,PT,2020-02-23 21:26:09,32.67,-17.1,70.0,45,20,19.46,few clouds,0.0,0.0
217,Luangwa,ZM,2020-02-23 21:26:10,-15.62,30.42,76.78,86,51,1.68,light rain,1.06,0.0
218,Nantucket,US,2020-02-23 21:26:10,41.28,-70.1,46.4,70,1,12.75,clear sky,0.0,0.0
219,Gizo,SB,2020-02-23 21:21:10,-8.1,156.84,78.8,86,16,4.09,few clouds,0.0,0.0
220,Soskovo,RU,2020-02-23 21:26:10,52.75,35.38,30.83,89,0,9.17,clear sky,0.0,0.0
221,Hithadhoo,MV,2020-02-23 21:30:09,-0.6,73.08,83.41,76,92,13.69,overcast clouds,0.0,0.0
222,Port Macquarie,AU,2020-02-23 21:26:11,-31.43,152.92,68.0,100,75,5.82,broken clouds,0.0,0.0
223,Lavrentiya,RU,2020-02-23 21:26:11,65.58,-171.0,-7.56,75,0,5.14,clear sky,0.0,0.0
224,Sao Jose Da Coroa Grande,BR,2020-02-23 21:26:11,-8.9,-35.15,82.38,77,3,14.03,clear sky,0.0,0.0
225,Brownsville,US,2020-02-23 21:25:33,25.9,-97.5,80.6,57,75,21.92,broken clouds,0.0,0.0
226,Boffa,GN,2020-02-23 21:26:11,10.17,-14.03,78.12,82,66,5.37,broken clouds,0.0,0.0
227,Matay,EG,2020-02-23 21:26:11,28.42,30.78,48.34,67,51,4.68,broken clouds,0.0,0.0
228,Vorotynets,RU,2020-02-23 21:26:12,56.06,45.86,30.88,95,100,13.47,light snow,0.0,1.19
229,Camocim,BR,2020-02-23 21:26:12,-2.9,-40.84,77.86,94,100,4.0,light rain,1.5,0.0
230,Kavaratti,IN,2020-02-23 21:34:26,10.57,72.64,81.52,75,100,8.14,overcast clouds,0.0,0.0
231,Aykhal,RU,2020-02-23 21:24:49,66.0,111.5,5.0,84,100,6.71,overcast clouds,0.0,0.0
232,Inuvik,CA,2020-02-23 21:21:16,68.35,-133.72,-2.2,70,75,5.82,light snow,0.0,0.0
233,Ajaccio,FR,2020-02-23 21:26:13,42.0,8.92,62.6,87,23,6.93,few clouds,0.0,0.0
234,Chiredzi,ZW,2020-02-23 21:26:13,-21.05,31.67,71.37,75,100,14.0,overcast clouds,0.0,0.0
235,Yamethin,MM,2020-02-23 21:26:13,20.43,96.15,67.17,51,8,6.58,clear sky,0.0,0.0
236,Kieta,PG,2020-02-23 21:26:13,-6.22,155.63,81.63,74,37,4.47,light rain,1.0,0.0
237,Vestmannaeyjar,IS,2020-02-23 21:25:10,63.44,-20.27,40.78,63,100,27.31,light snow,0.0,0.88
238,Mehamn,NO,2020-02-23 21:26:14,71.04,27.85,33.8,92,75,11.41,broken clouds,0.0,0.0
239,Giyani,ZA,2020-02-23 21:26:14,-23.3,30.72,66.54,72,99,14.29,overcast clouds,0.0,0.0
240,Addis Zemen,ZA,2020-02-23 21:26:14,-23.3,30.72,66.54,72,99,14.29,overcast clouds,0.0,0.0
241,Isla Mujeres,MX,2020-02-23 21:26:14,21.23,-86.73,78.8,65,75,6.93,broken clouds,0.0,0.0
242,Knoxville,US,2020-02-23 21:25:02,35.96,-83.92,55.4,32,40,10.29,scattered clouds,0.0,0.0
243,Dipkarpaz,US,2020-02-23 21:25:02,35.96,-83.92,55.4,32,40,10.29,scattered clouds,0.0,0.0
244,Mayumba,GA,2020-02-23 21:26:15,-3.43,10.66,82.08,79,87,7.29,overcast clouds,0.0,0.0
245,Vozrozhdeniye,RU,2020-02-23 21:26:15,44.55,38.21,41.0,77,100,3.0,light rain,0.19,0.0
246,Champerico,GT,2020-02-23 21:26:15,14.3,-91.92,93.2,44,40,11.41,scattered clouds,0.0,0.0
247,Udachnyy,RU,2020-02-23 21:34:29,66.42,112.4,5.0,84,93,6.71,overcast clouds,0.0,0.0
248,Provideniya,RU,2020-02-23 21:23:49,64.38,-173.3,-6.63,70,0,2.08,clear sky,0.0,0.0
249,Juneau,US,2020-02-23 21:26:16,58.3,-134.42,35.6,96,90,2.82,moderate rain,0.0,0.0
250,Madang,PG,2020-02-23 21:34:29,-5.22,145.8,78.67,89,100,11.01,light rain,2.5,0.0
251,Aasiaat,GL,2020-02-23 21:26:16,68.71,-52.87,-7.17,73,7,2.68,clear sky,0.0,0.0
252,Kavieng,PG,2020-02-23 21:23:05,-2.57,150.8,84.29,69,2,8.01,clear sky,0.0,0.0
253,Toktogul,KG,2020-02-23 21:26:17,41.87,72.94,25.99,97,100,1.61,snow,0.0,1.69
254,Nan,TH,2020-02-23 21:26:17,18.83,100.67,63.36,58,0,2.48,clear sky,0.0,0.0
255,Yulara,AU,2020-02-23 21:26:17,-25.24,130.99,71.6,24,0,8.05,clear sky,0.0,0.0
256,Muros,ES,2020-02-23 21:26:17,42.78,-9.06,57.99,93,0,2.24,clear sky,0.0,0.0
257,Royal Tunbridge Wells,GB,2020-02-23 21:24:03,51.13,0.26,48.0,75,100,3.36,overcast clouds,0.0,0.0
258,Esperance,AU,2020-02-23 21:26:18,-33.87,121.9,64.4,88,90,12.75,overcast clouds,0.0,0.0
259,Lasa,IT,2020-02-23 21:25:01,46.62,10.7,44.6,56,5,6.93,clear sky,0.0,0.0
260,Hongjiang,CN,2020-02-23 21:26:18,27.11,110.0,56.84,88,8,5.14,clear sky,0.0,0.0
261,Khakhea,BW,2020-02-23 21:26:18,-24.69,23.49,73.15,64,92,17.78,overcast clouds,0.0,0.0
262,Kloulklubed,PW,2020-02-23 21:25:21,7.04,134.26,80.6,78,75,14.99,broken clouds,0.0,0.0
263,Adrar,MR,2020-02-23 21:26:19,20.5,-10.07,85.57,9,100,9.98,overcast clouds,0.0,0.0
264,Sept-Iles,CA,2020-02-23 21:22:59,50.2,-66.38,30.2,86,75,4.7,broken clouds,0.0,0.0
265,Erenhot,CN,2020-02-23 21:26:19,43.65,111.98,22.75,79,81,11.14,broken clouds,0.0,0.0
266,Hasaki,JP,2020-02-23 21:24:17,35.73,140.83,32.0,33,20,1.12,few clouds,0.0,0.0
267,Dongsheng,CN,2020-02-23 21:26:19,39.82,109.98,34.45,64,100,6.69,overcast clouds,0.0,0.0
268,Kralendijk,BQ,2020-02-23 21:22:03,12.15,-68.27,84.2,58,38,12.75,scattered clouds,0.0,0.0
269,Kahului,US,2020-02-23 21:26:20,20.89,-156.47,80.6,54,20,6.93,few clouds,0.0,0.0
270,Plettenberg Bay,ZA,2020-02-23 21:26:20,-34.05,23.37,61.75,76,12,5.93,few clouds,0.0,0.0
271,Barbar,ZA,2020-02-23 21:26:20,-34.05,23.37,61.75,76,12,5.93,few clouds,0.0,0.0
272,Saurimo,AO,2020-02-23 21:26:20,-9.66,20.39,67.73,98,100,3.49,light rain,0.88,0.0
273,Ulladulla,AU,2020-02-23 21:26:21,-35.35,150.47,69.8,68,13,6.93,few clouds,0.0,0.0
274,Kano,NG,2020-02-23 21:26:21,12.0,8.52,71.6,30,0,5.82,clear sky,0.0,0.0
275,Monroe,US,2020-02-23 21:26:21,43.15,-77.68,51.01,31,40,12.75,scattered clouds,0.0,0.0
276,Viedma,AR,2020-02-23 21:21:25,-40.81,-63.0,90.43,22,0,19.86,clear sky,0.0,0.0
277,Portland,US,2020-02-23 21:22:57,45.52,-122.68,52.0,53,75,23.04,light rain,0.0,0.0
278,Pyay,MM,2020-02-23 21:26:22,18.82,95.22,66.72,46,0,2.28,clear sky,0.0,0.0
279,Katherine,AU,2020-02-23 21:26:22,-14.47,132.27,82.4,78,75,8.05,broken clouds,0.0,0.0
280,Hualmay,PE,2020-02-23 21:26:22,-11.1,-77.61,80.71,53,81,8.34,broken clouds,0.0,0.0
281,Matagami,CA,2020-02-23 21:26:22,49.75,-77.63,37.4,59,40,11.41,scattered clouds,0.0,0.0
282,Sambava,MG,2020-02-23 21:26:22,-14.27,50.17,73.98,98,100,1.54,light rain,2.88,0.0
283,Ziyang,CN,2020-02-23 21:26:23,29.25,117.85,54.45,89,100,4.65,overcast clouds,0.0,0.0
284,Ust-Tsilma,RU,2020-02-23 21:26:23,65.44,52.15,30.06,82,100,12.97,overcast clouds,0.0,0.0
285,Port Elizabeth,ZA,2020-02-23 21:26:23,-33.92,25.57,55.4,82,0,4.65,clear sky,0.0,0.0
286,Norman Wells,CA,2020-02-23 21:23:10,65.28,-126.83,5.0,71,75,10.29,broken clouds,0.0,0.0
287,Uray,RU,2020-02-23 21:26:23,60.12,64.78,26.24,91,27,11.54,scattered clouds,0.0,0.0
288,Shahreza,IR,2020-02-23 21:26:24,32.03,51.88,46.17,45,100,4.07,overcast clouds,0.0,0.0
289,Igarape-Miri,IR,2020-02-23 21:26:24,32.03,51.88,46.17,45,100,4.07,overcast clouds,0.0,0.0
290,San Vicente,AR,2020-02-23 21:21:43,-26.62,-54.13,77.0,75,99,1.28,overcast clouds,0.0,0.0
291,Baloda Bazar,IN,2020-02-23 21:26:24,21.67,82.17,69.37,68,32,6.24,light rain,0.75,0.0
292,Yurginskoye,RU,2020-02-23 21:26:24,56.82,67.39,17.73,95,0,6.58,clear sky,0.0,0.0
293,Eyl,SO,2020-02-23 21:26:25,7.98,49.82,79.14,73,100,20.4,overcast clouds,0.0,0.0
294,Krasnokamensk,RU,2020-02-23 21:26:25,50.1,118.04,4.15,88,0,4.34,clear sky,0.0,0.0
295,Huarmey,PE,2020-02-23 21:26:25,-10.07,-78.15,82.13,49,76,9.17,broken clouds,0.0,0.0
296,Liwale,TZ,2020-02-23 21:26:25,-9.77,37.93,72.25,99,74,4.27,broken clouds,0.0,0.0
297,Pangody,RU,2020-02-23 21:26:25,65.85,74.49,24.85,89,99,22.66,light snow,0.0,0.13
298,Rio Gallegos,AR,2020-02-23 21:34:07,-51.62,-69.22,66.2,29,40,20.8,scattered clouds,0.0,0.0
299,Santa Isabel Do Rio Negro,BR,2020-02-23 21:26:26,-0.41,-65.02,92.55,51,98,3.98,overcast clouds,0.0,0.0
300,Huilong,CN,2020-02-23 21:26:26,31.81,121.66,52.0,74,41,12.37,scattered clouds,0.0,0.0
301,Necochea,AR,2020-02-23 21:26:26,-38.55,-58.74,82.0,20,0,10.0,clear sky,0.0,0.0
302,Longyearbyen,SJ,2020-02-23 21:24:43,78.22,15.64,-4.0,76,20,9.17,few clouds,0.0,0.0
303,Bilma,NE,2020-02-23 21:26:27,18.69,12.92,66.04,20,64,12.77,broken clouds,0.0,0.0
304,Kamenskoye,NE,2020-02-23 21:26:27,18.69,12.92,66.04,20,64,12.77,broken clouds,0.0,0.0
305,Arroyo,ES,2020-02-23 21:26:27,41.61,-4.8,46.0,50,0,8.05,clear sky,0.0,0.0
306,Virginia Beach,US,2020-02-23 21:23:08,36.85,-75.98,62.6,26,40,12.75,scattered clouds,0.0,0.0
307,Kegayli,US,2020-02-23 21:23:08,36.85,-75.98,62.6,26,40,12.75,scattered clouds,0.0,0.0
308,Rafai,CF,2020-02-23 21:26:28,4.95,23.92,78.31,18,9,3.4,clear sky,0.0,0.0
309,Sao Filipe,CV,2020-02-23 21:26:28,14.9,-24.5,68.41,83,23,16.4,few clouds,0.0,0.0
310,Marsciano,IT,2020-02-23 21:26:28,42.91,12.34,48.99,87,34,2.24,scattered clouds,0.0,0.0
311,Bengkulu,ID,2020-02-23 21:34:41,-3.8,102.27,74.08,89,3,4.56,clear sky,0.0,0.0
312,Daru,PG,2020-02-23 21:26:28,-9.08,143.21,76.57,93,100,6.11,overcast clouds,0.0,0.0
313,Kutum,SD,2020-02-23 21:26:29,14.2,24.67,58.84,24,0,6.89,clear sky,0.0,0.0
314,San Patricio,MX,2020-02-23 21:26:29,19.22,-104.7,84.2,74,5,13.87,clear sky,0.0,0.0
315,Chandbali,IN,2020-02-23 21:26:29,20.78,86.77,72.12,73,0,9.82,clear sky,0.0,0.0
316,Mahadday Weyne,IN,2020-02-23 21:26:29,20.78,86.77,72.12,73,0,9.82,clear sky,0.0,0.0
317,Santa Rosa,PH,2020-02-23 21:26:29,14.31,121.11,77.0,78,20,3.36,few clouds,0.0,0.0
318,Kon Tum,VN,2020-02-23 21:26:30,14.35,108.0,49.32,95,0,3.11,clear sky,0.0,0.0
319,Petropavlovsk-Kamchatskiy,RU,2020-02-23 21:26:30,53.05,158.65,21.2,57,40,11.18,scattered clouds,0.0,0.0
320,Katsuura,JP,2020-02-23 21:26:30,35.13,140.3,42.8,45,20,10.29,few clouds,0.0,0.0
321,Angoche,MZ,2020-02-23 21:26:30,-16.23,39.91,77.65,92,88,3.24,light rain,0.81,0.0
322,Jian,CN,2020-02-23 21:26:30,27.12,114.98,59.38,85,100,1.52,overcast clouds,0.0,0.0
323,Prince Rupert,CA,2020-02-23 21:26:31,54.32,-130.32,39.2,73,90,5.82,overcast clouds,0.0,0.0
324,Lima,PE,2020-02-23 21:23:07,-12.04,-77.03,82.4,65,26,13.87,scattered clouds,0.0,0.0
325,Kupang,ID,2020-02-23 21:26:31,-10.17,123.58,77.0,100,20,2.24,few clouds,0.0,0.0
326,Puerto Escondido,MX,2020-02-23 21:26:31,15.85,-97.07,87.8,79,20,5.82,few clouds,0.0,0.0
327,Nizhneyansk,MX,2020-02-23 21:26:31,15.85,-97.07,87.8,79,20,5.82,few clouds,0.0,0.0
328,Cansancao,BR,2020-02-23 21:26:32,-10.67,-39.5,83.61,57,48,3.02,scattered clouds,0.0,0.0
329,Cabo San Lucas,MX,2020-02-23 21:22:04,22.89,-109.91,81.0,44,20,11.41,few clouds,0.0,0.0
330,Nyurba,RU,2020-02-23 21:26:32,63.28,118.33,-6.61,96,91,5.99,overcast clouds,0.0,0.0
331,Volary,CZ,2020-02-23 21:26:32,48.91,13.89,55.99,94,100,8.01,light rain,2.13,0.0
332,Zhigansk,RU,2020-02-23 21:26:32,66.77,123.37,-12.48,97,99,11.03,overcast clouds,0.0,0.0
333,Bonthe,SL,2020-02-23 21:26:32,7.53,-12.51,80.31,82,13,9.37,few clouds,0.0,0.0
334,Kalangala,UG,2020-02-23 21:25:07,-0.31,32.23,77.0,83,20,2.24,few clouds,0.0,0.0
335,Narsaq,GL,2020-02-23 21:26:33,60.92,-46.05,24.8,53,100,12.75,light snow,0.0,1.44
336,Vega De Alatorre,MX,2020-02-23 21:26:33,20.03,-96.63,73.72,83,0,26.26,clear sky,0.0,0.0
337,Chifeng,CN,2020-02-23 21:26:33,42.27,118.96,26.33,73,69,4.16,broken clouds,0.0,0.0
338,Havelock,US,2020-02-23 21:26:33,34.88,-76.9,62.6,24,1,10.29,clear sky,0.0,0.0
339,Chicama,PE,2020-02-23 21:25:35,-7.84,-79.15,75.2,83,75,6.93,mist,0.0,0.0
340,Dawlatabad,AF,2020-02-23 21:26:34,36.41,64.91,53.67,70,85,3.74,overcast clouds,0.0,0.0
341,Whitley Bay,GB,2020-02-23 21:26:34,55.04,-1.45,41.0,86,11,16.11,few clouds,0.0,0.0
342,Coahuayana,MX,2020-02-23 21:26:34,18.73,-103.68,86.0,51,5,11.41,clear sky,0.0,0.0
343,Fortuna,US,2020-02-23 21:24:08,40.6,-124.16,60.01,76,75,3.36,broken clouds,0.0,0.0
344,Bayanday,RU,2020-02-23 21:26:35,53.07,105.51,-1.61,94,0,3.24,clear sky,0.0,0.0
345,Nhulunbuy,AU,2020-02-23 21:26:35,-12.23,136.77,84.2,79,40,13.87,scattered clouds,0.0,0.0
346,Seydi,TM,2020-02-23 21:26:35,39.48,62.91,46.65,66,0,4.92,clear sky,0.0,0.0
347,Richards Bay,ZA,2020-02-23 21:26:35,-28.78,32.04,74.25,65,38,24.05,light rain,0.25,0.0
348,Semnan,IR,2020-02-23 21:26:35,35.57,53.4,49.06,57,0,1.95,clear sky,0.0,0.0
349,Ribeira Grande,PT,2020-02-23 21:26:36,38.52,-28.7,60.8,72,75,6.93,broken clouds,0.0,0.0
350,Guelengdeng,PT,2020-02-23 21:26:36,38.52,-28.7,60.8,72,75,6.93,broken clouds,0.0,0.0
351,Tual,ID,2020-02-23 21:26:36,-5.67,132.75,82.78,77,100,10.6,light rain,2.69,0.0
352,Pangnirtung,CA,2020-02-23 21:22:49,66.15,-65.71,-29.2,60,75,1.79,broken clouds,0.0,0.0
353,Toungoo,CA,2020-02-23 21:22:49,66.15,-65.71,-29.2,60,75,1.79,broken clouds,0.0,0.0
354,Bucerias,MX,2020-02-23 21:26:37,20.75,-105.33,81.0,69,75,17.22,broken clouds,0.0,0.0
355,Santa Cruz Cabralia,BR,2020-02-23 21:26:37,-16.28,-39.02,78.8,83,75,8.05,shower rain,0.0,0.0
356,Zelenoborsk,RU,2020-02-23 21:26:37,61.47,64.03,27.48,88,93,14.32,overcast clouds,0.0,0.0
357,Kiama,AU,2020-02-23 21:26:37,-34.68,150.87,72.0,68,0,6.93,clear sky,0.0,0.0
358,Zhezkazgan,KZ,2020-02-23 21:26:37,47.8,67.71,6.89,94,0,7.02,clear sky,0.0,0.0
359,Harstad,NO,2020-02-23 21:26:38,68.8,16.53,33.8,98,90,48.32,snow,0.0,0.0
360,Sidney,AU,2020-02-23 21:25:05,-33.87,151.21,71.6,73,75,1.12,broken clouds,0.0,0.0
361,Amapa,BR,2020-02-23 21:26:38,1.0,-52.0,77.05,96,100,3.33,moderate rain,6.19,0.0
362,Maketu,NZ,2020-02-23 21:26:38,-37.77,176.45,68.0,56,0,1.99,clear sky,0.0,0.0
363,Mersing,MY,2020-02-23 21:26:38,2.43,103.84,78.8,100,45,12.75,light rain,0.31,0.0
364,Acarau,BR,2020-02-23 21:26:39,-2.89,-40.12,78.28,88,7,5.28,clear sky,0.0,0.0
365,Strezhevoy,RU,2020-02-23 21:24:20,60.73,77.59,17.6,67,77,8.95,broken clouds,0.0,0.0
366,Olinda,BR,2020-02-23 21:26:39,-8.01,-34.86,84.2,74,40,9.17,scattered clouds,0.0,0.0
367,Mount Gambier,AU,2020-02-23 21:25:02,-37.83,140.77,57.2,100,90,8.05,overcast clouds,0.0,0.0
368,Iranshahr,IR,2020-02-23 21:26:39,27.2,60.68,64.4,52,0,7.29,clear sky,0.0,0.0
369,Bathsheba,BB,2020-02-23 21:24:21,13.22,-59.52,82.4,74,40,13.87,scattered clouds,0.0,0.0
370,Harlingen,US,2020-02-23 21:26:40,26.19,-97.7,82.4,57,90,20.8,overcast clouds,0.0,0.0
371,Port Moresby,PG,2020-02-23 21:26:40,-9.44,147.18,77.0,94,75,4.7,broken clouds,0.0,0.0
372,San Pedro,PH,2020-02-23 21:26:40,14.35,121.02,77.0,78,20,3.36,few clouds,0.0,0.0
373,Vao,NC,2020-02-23 21:26:40,-22.67,167.48,78.08,75,50,12.88,scattered clouds,0.0,0.0
374,Najran,SA,2020-02-23 21:26:41,17.49,44.13,71.6,35,94,1.95,overcast clouds,0.0,0.0
375,Villanueva De La Serena,ES,2020-02-23 21:26:41,38.98,-5.8,53.2,68,0,3.44,clear sky,0.0,0.0
376,Coihaique,CL,2020-02-23 21:23:23,-45.58,-72.07,62.6,45,40,11.41,scattered clouds,0.0,0.0
377,Tomatlan,MX,2020-02-23 21:26:41,19.93,-105.25,94.77,25,18,9.17,few clouds,0.0,0.0
378,San Cristobal,VE,2020-02-23 21:25:04,7.77,-72.22,84.2,54,40,4.7,scattered clouds,0.0,0.0
379,Isabela,PH,2020-02-23 21:26:42,6.71,121.97,75.2,83,20,3.36,few clouds,0.0,0.0
380,Dullewala,PK,2020-02-23 21:26:42,31.84,71.44,63.27,50,79,4.09,broken clouds,0.0,0.0
381,Sentyabrskiy,PK,2020-02-23 21:26:42,31.84,71.44,63.27,50,79,4.09,broken clouds,0.0,0.0
382,Berlevag,NO,2020-02-23 21:26:42,70.86,29.09,30.2,92,75,11.41,broken clouds,0.0,0.0
383,Biltine,TD,2020-02-23 21:26:42,14.53,20.92,69.49,17,0,11.99,clear sky,0.0,0.0
384,Alibag,IN,2020-02-23 21:26:43,18.64,72.88,78.8,50,0,2.04,smoke,0.0,0.0
385,Korhogo,CI,2020-02-23 21:25:06,9.45,-5.63,82.54,17,0,1.97,clear sky,0.0,0.0
386,Khovu-Aksy,RU,2020-02-23 21:26:43,51.13,93.6,9.14,94,100,2.48,overcast clouds,0.0,0.0
387,Coruripe,BR,2020-02-23 21:26:43,-10.13,-36.18,81.84,78,5,12.86,clear sky,0.0,0.0
388,Ischia,IT,2020-02-23 21:26:43,40.73,13.95,57.0,87,40,3.36,scattered clouds,0.0,0.0
389,Roebourne,AU,2020-02-23 21:26:44,-20.78,117.13,80.55,60,3,11.07,clear sky,0.0,0.0
390,Dukat,RU,2020-02-23 21:26:44,62.55,155.55,-20.45,100,70,0.54,broken clouds,0.0,0.0
391,Warwick,US,2020-02-23 21:24:10,41.7,-71.42,53.6,27,20,9.17,few clouds,0.0,0.0
392,Kuryk,KZ,2020-02-23 21:26:44,43.2,51.65,46.67,92,64,6.24,broken clouds,0.0,0.0
393,Odweyne,SO,2020-02-23 21:24:26,9.41,45.06,67.51,36,38,2.55,scattered clouds,0.0,0.0
394,Beringovskiy,RU,2020-02-23 21:26:45,63.05,179.32,-12.48,87,1,3.53,clear sky,0.0,0.0
395,Vanavara,RU,2020-02-23 21:26:45,60.34,102.28,12.72,95,100,7.0,overcast clouds,0.0,0.0
396,Kingaroy,AU,2020-02-23 21:26:46,-26.53,151.83,66.2,100,90,9.17,overcast clouds,0.0,0.0
397,Laguna,US,2020-02-23 21:26:46,38.42,-121.42,66.2,62,1,5.82,clear sky,0.0,0.0
398,Kenai,US,2020-02-23 21:26:46,60.55,-151.26,19.4,61,1,4.7,clear sky,0.0,0.0
399,Fort-Shevchenko,KZ,2020-02-23 21:26:47,44.51,50.26,40.64,89,100,7.05,overcast clouds,0.0,0.0
400,Bontang,ID,2020-02-23 21:26:47,0.13,117.5,79.65,80,52,13.94,broken clouds,0.0,0.0
401,Vostok,RU,2020-02-23 21:26:47,46.49,135.88,5.68,92,100,3.89,overcast clouds,0.0,0.0
402,Bukit Bakri,RU,2020-02-23 21:26:47,46.49,135.88,5.68,92,100,3.89,overcast clouds,0.0,0.0
403,Aksu,CN,2020-02-23 21:26:47,41.12,80.26,37.27,45,96,4.34,overcast clouds,0.0,0.0
404,Baykit,RU,2020-02-23 21:26:48,61.67,96.37,8.71,95,73,2.55,broken clouds,0.0,0.0
405,Tateyama,JP,2020-02-23 21:26:48,34.98,139.87,42.8,45,20,10.29,few clouds,0.0,0.0
406,Kysyl-Syr,RU,2020-02-23 21:26:48,63.9,122.76,-13.7,99,52,3.85,broken clouds,0.0,0.0
407,Lonevag,NO,2020-02-23 21:26:48,60.53,5.49,39.2,64,75,20.8,broken clouds,0.0,0.0
408,Bauchi,NG,2020-02-23 21:26:48,10.5,10.0,74.66,17,0,8.14,clear sky,0.0,0.0
409,Ayer Itam,NG,2020-02-23 21:26:48,10.5,10.0,74.66,17,0,8.14,clear sky,0.0,0.0
410,Hamilton,US,2020-02-23 21:26:49,39.18,-84.53,55.0,27,75,11.41,broken clouds,0.0,0.0
411,Luau,AO,2020-02-23 21:24:30,-10.71,22.22,67.32,97,100,8.43,overcast clouds,0.0,0.0
412,Hofn,IS,2020-02-23 21:26:49,64.25,-15.21,37.6,70,59,20.98,broken clouds,0.0,0.0
413,Marcona,IS,2020-02-23 21:26:49,64.25,-15.21,37.6,70,59,20.98,broken clouds,0.0,0.0
414,Aripuana,BR,2020-02-23 21:26:49,-9.17,-60.63,79.9,95,91,1.41,moderate rain,5.0,0.0
415,Plainview,US,2020-02-23 21:26:50,40.78,-73.47,55.99,27,1,13.87,clear sky,0.0,0.0
416,Half Moon Bay,US,2020-02-23 21:26:50,37.46,-122.43,64.0,71,75,19.46,broken clouds,0.0,0.0
417,Yaring,TH,2020-02-23 21:26:50,6.87,101.37,79.77,80,35,19.77,scattered clouds,0.0,0.0
418,Grand River South East,TH,2020-02-23 21:26:50,6.87,101.37,79.77,80,35,19.77,scattered clouds,0.0,0.0
419,Kaka,TM,2020-02-23 21:26:50,37.35,59.61,51.89,65,21,6.89,few clouds,0.0,0.0
420,Saint-Louis,SN,2020-02-23 21:26:51,16.33,-15.0,89.94,11,100,11.3,overcast clouds,0.0,0.0
421,La Ronge,CA,2020-02-23 21:25:49,55.1,-105.28,33.8,47,40,6.93,scattered clouds,0.0,0.0
422,Westport,US,2020-02-23 21:26:03,41.14,-73.36,54.0,37,1,10.29,clear sky,0.0,0.0
423,Palmer,US,2020-02-23 21:26:51,42.16,-72.33,55.4,23,75,10.29,broken clouds,0.0,0.0
424,Rancho Palos Verdes,US,2020-02-23 21:26:51,33.74,-118.39,68.0,72,40,9.17,scattered clouds,0.0,0.0
425,Souillac,MU,2020-02-23 21:26:52,-20.52,57.52,77.0,88,40,4.7,scattered clouds,0.0,0.0
426,Zyryanka,RU,2020-02-23 21:26:52,65.75,150.85,-11.83,98,100,2.08,overcast clouds,0.0,0.0
427,Aitape,PG,2020-02-23 21:26:52,-3.14,142.35,81.48,81,86,11.48,light rain,1.44,0.0
428,Cayenne,GF,2020-02-23 21:26:52,4.93,-52.33,82.4,74,90,12.75,overcast clouds,0.0,0.0
429,Saint-Francois,FR,2020-02-23 21:24:05,46.42,3.91,48.2,81,90,4.7,overcast clouds,0.0,0.0
430,Louisbourg,FR,2020-02-23 21:24:05,46.42,3.91,48.2,81,90,4.7,overcast clouds,0.0,0.0
431,Baringo,KE,2020-02-23 21:26:53,0.47,35.97,77.88,51,43,6.73,scattered clouds,0.0,0.0
432,Samdari,IN,2020-02-23 21:26:53,25.82,72.58,67.93,44,0,9.04,clear sky,0.0,0.0
433,Mahebourg,MU,2020-02-23 21:26:53,-20.41,57.7,77.0,88,40,4.7,scattered clouds,0.0,0.0
434,Road Town,VG,2020-02-23 21:22:56,18.42,-64.62,82.0,69,20,9.17,few clouds,0.0,0.0
435,Senno,RU,2020-02-23 21:26:54,59.53,33.92,33.37,97,100,8.9,light snow,0.0,0.25
436,Kurchum,KZ,2020-02-23 21:25:14,48.57,83.65,11.14,91,92,2.8,overcast clouds,0.0,0.0
437,Andselv,KZ,2020-02-23 21:25:14,48.57,83.65,11.14,91,92,2.8,overcast clouds,0.0,0.0
438,Srednekolymsk,RU,2020-02-23 21:24:16,67.45,153.68,-24.97,98,78,1.59,broken clouds,0.0,0.0
439,Midyat,TR,2020-02-23 21:26:54,37.42,41.34,48.2,81,75,9.17,broken clouds,0.0,0.0
440,Saleaula,TR,2020-02-23 21:26:54,37.42,41.34,48.2,81,75,9.17,broken clouds,0.0,0.0
441,Isangel,VU,2020-02-23 21:26:55,-19.55,169.27,73.4,94,20,14.54,few clouds,0.0,0.0
442,Les Cayes,HT,2020-02-23 21:26:55,18.2,-73.75,80.19,64,21,5.21,light rain,0.75,0.0
443,Daura,NG,2020-02-23 21:26:55,11.55,11.41,75.72,15,0,13.29,clear sky,0.0,0.0
444,Yumen,CN,2020-02-23 21:25:25,40.28,97.2,27.45,49,32,14.5,scattered clouds,0.0,0.0
445,Faya,SA,2020-02-23 21:26:55,18.39,42.45,62.6,51,75,8.05,broken clouds,0.0,0.0
446,Bilibino,RU,2020-02-23 21:26:56,68.05,166.44,-31.63,98,40,2.42,scattered clouds,0.0,0.0
447,Arenal,CO,2020-02-23 21:26:56,8.46,-73.94,90.75,47,99,4.68,overcast clouds,0.0,0.0
448,Husavik,IS,2020-02-23 21:26:56,66.04,-17.34,19.56,83,2,10.6,clear sky,0.0,0.0
449,Robertsport,LR,2020-02-23 21:26:56,6.75,-11.37,83.86,83,5,13.8,clear sky,0.0,0.0
450,Fereydun Kenar,IR,2020-02-23 21:26:56,36.69,52.52,50.0,93,90,6.93,mist,0.0,0.0
451,Biak,ID,2020-02-23 21:26:57,-0.91,122.88,81.99,75,59,8.19,broken clouds,0.0,0.0
452,Yar-Sale,RU,2020-02-23 21:26:57,66.83,70.83,29.5,84,100,27.89,overcast clouds,0.0,0.0
453,Balkhash,KZ,2020-02-23 21:26:57,46.84,74.98,11.8,87,78,11.7,broken clouds,0.0,0.0
454,Sangar,RU,2020-02-23 21:26:57,63.92,127.47,-16.11,99,100,0.98,overcast clouds,0.0,0.0
455,Vizinga,RU,2020-02-23 21:26:57,61.07,50.1,27.79,93,100,13.98,light snow,0.0,0.94
456,Portoferraio,IT,2020-02-23 21:26:58,42.81,10.31,51.01,93,46,3.36,scattered clouds,0.0,0.0
457,Marsh Harbour,BS,2020-02-23 21:26:58,26.54,-77.06,68.11,60,22,15.41,few clouds,0.0,0.0
458,Waipawa,NZ,2020-02-23 21:26:58,-41.41,175.52,62.01,72,28,6.93,scattered clouds,0.0,0.0
459,College,US,2020-02-23 21:35:08,64.86,-147.8,-0.4,76,1,1.43,clear sky,0.0,0.0
460,Saint George,US,2020-02-23 21:22:16,37.1,-113.58,57.0,50,1,8.05,clear sky,0.0,0.0
461,Tilichiki,RU,2020-02-23 21:26:59,60.47,166.1,-5.6,91,100,6.93,overcast clouds,0.0,0.0
462,Da Nang,VN,2020-02-23 21:26:59,16.07,108.22,64.4,93,20,2.24,mist,0.0,0.0
463,Banda Aceh,ID,2020-02-23 21:26:59,5.56,95.32,74.55,82,0,6.78,clear sky,0.0,0.0
464,Sur,OM,2020-02-23 21:26:59,22.57,59.53,70.61,64,0,3.74,clear sky,0.0,0.0
465,Sibiti,CG,2020-02-23 21:26:59,-3.68,13.35,72.52,97,77,3.78,moderate rain,5.06,0.0
466,Xinzhi,CN,2020-02-23 21:27:00,36.5,111.7,43.25,58,96,1.3,overcast clouds,0.0,0.0
467,Eydhafushi,MV,2020-02-23 21:27:00,5.1,73.07,83.03,77,33,21.18,scattered clouds,0.0,0.0
468,Bowen,AU,2020-02-23 21:27:00,-20.02,148.23,77.0,100,90,5.82,overcast clouds,0.0,0.0
469,Havoysund,NO,2020-02-23 21:27:00,71.0,24.66,33.8,80,75,11.41,broken clouds,0.0,0.0
470,Muskogee,US,2020-02-23 21:27:00,35.58,-95.33,53.6,87,90,10.29,overcast clouds,0.0,0.0
471,Kotturu,IN,2020-02-23 21:27:01,14.82,76.22,70.32,61,100,12.46,overcast clouds,0.0,0.0
472,Marzuq,YE,2020-02-23 21:27:01,14.4,46.47,61.81,35,0,3.71,clear sky,0.0,0.0
473,Chapais,CA,2020-02-23 21:27:01,49.78,-74.85,35.6,64,75,9.17,broken clouds,0.0,0.0
474,Xihe,CN,2020-02-23 21:27:01,31.69,113.47,55.69,81,76,12.39,broken clouds,0.0,0.0
475,Omboue,GA,2020-02-23 21:27:01,-1.57,9.26,77.14,94,100,3.51,moderate rain,4.5,0.0
476,Wulanhaote,GA,2020-02-23 21:27:01,-1.57,9.26,77.14,94,100,3.51,moderate rain,0.0,0.0
477,Nishihara,JP,2020-02-23 21:27:02,26.18,127.76,60.8,77,20,2.24,few clouds,0.0,0.0
478,Apia,WS,2020-02-23 21:25:56,-13.83,-171.77,79.61,80,100,14.9,light rain,2.75,0.0
479,Luderitz,NA,2020-02-23 21:27:02,-26.65,15.16,71.46,57,0,24.92,clear sky,0.0,0.0
480,Vila,PT,2020-02-23 21:27:02,42.03,-8.16,57.99,81,0,2.24,clear sky,0.0,0.0
481,Bacolod,PH,2020-02-23 21:27:02,10.67,122.95,73.11,80,0,6.55,clear sky,0.0,0.0
482,Ceres,US,2020-02-23 21:27:03,37.59,-120.96,64.0,48,1,9.17,clear sky,0.0,0.0
483,Hirara,JP,2020-02-23 21:27:03,24.8,125.28,67.53,74,100,13.89,overcast clouds,0.0,0.0
484,Esmeraldas,BR,2020-02-23 21:27:03,-19.76,-44.31,73.4,78,75,12.75,broken clouds,0.0,0.0
485,Vardo,NO,2020-02-23 21:27:03,70.37,31.11,26.6,92,75,12.75,broken clouds,0.0,0.0
486,Datong,CN,2020-02-23 21:25:31,40.09,113.29,30.49,58,100,1.52,overcast clouds,0.0,0.0
487,Mount Darwin,ZW,2020-02-23 21:27:04,-16.77,31.58,69.17,93,100,6.58,moderate rain,5.25,0.0
488,Moron,AR,2020-02-23 21:23:18,-34.65,-58.62,79.0,41,0,10.29,clear sky,0.0,0.0
489,Ixtapa,MX,2020-02-23 21:25:38,20.7,-105.2,81.0,69,75,17.22,broken clouds,0.0,0.0
490,Waingapu,ID,2020-02-23 21:27:04,-9.66,120.26,83.1,78,49,17.94,scattered clouds,0.0,0.0
491,Chuy,UY,2020-02-23 21:27:04,-33.7,-53.46,71.87,61,23,10.29,few clouds,0.0,0.0
492,Kashi,CN,2020-02-23 21:27:05,39.45,75.98,41.0,25,55,4.47,broken clouds,0.0,0.0
493,Santa Cruz,BO,2020-02-23 21:24:19,-17.8,-63.17,82.4,47,75,5.82,broken clouds,0.0,0.0
494,Belousovka,KZ,2020-02-23 21:27:05,50.13,82.52,14.0,92,90,2.24,light snow,0.0,0.0
495,Veraval,IN,2020-02-23 21:27:05,20.9,70.37,70.29,31,0,9.17,clear sky,0.0,0.0
496,Sefton,NZ,2020-02-23 21:27:05,-43.25,172.67,66.0,52,0,21.92,clear sky,0.0,0.0
497,Mondovi,IT,2020-02-23 21:27:06,44.4,7.82,55.0,93,100,3.36,mist,0.0,0.0
498,Kazalinsk,IT,2020-02-23 21:27:06,44.4,7.82,55.0,93,100,3.36,mist,0.0,0.0
499,Latehar,IN,2020-02-23 21:27:06,23.75,84.5,60.66,83,100,3.96,light rain,1.5,0.0
500,Ilhabela,BR,2020-02-23 21:23:31,-23.78,-45.36,76.19,69,100,16.08,overcast clouds,0.0,0.0
501,Lata,PT,2020-02-23 21:24:06,40.16,-8.33,62.01,76,0,1.12,clear sky,0.0,0.0
502,Stornoway,GB,2020-02-23 21:25:50,58.21,-6.39,35.01,86,15,5.82,few clouds,0.0,0.0
503,Den Helder,NL,2020-02-23 21:23:51,52.96,4.76,45.0,75,75,18.34,broken clouds,0.0,0.0
504,Namangan,UZ,2020-02-23 21:27:07,41.0,71.67,50.0,76,90,11.41,light intensity shower rain,0.0,0.0
505,Ljubimec,UZ,2020-02-23 21:27:07,41.0,71.67,50.0,76,90,11.41,light intensity shower rain,0.0,0.0
506,Wanxian,CN,2020-02-23 21:27:07,30.8,108.39,52.03,80,100,0.94,light rain,0.19,0.0
507,Karamay,CN,2020-02-23 21:27:07,30.8,108.39,52.03,80,100,0.94,light rain,0.0,0.0
508,Birin,NP,2020-02-23 21:27:08,26.89,88.07,45.63,75,33,3.6,scattered clouds,0.0,0.0
509,Panguna,PG,2020-02-23 21:27:08,-6.32,155.48,74.23,90,0,0.6,light rain,0.44,0.0
510,Hennenman,ZA,2020-02-23 21:27:08,-27.98,27.02,62.01,65,100,18.43,overcast clouds,0.0,0.0
511,Pacifica,US,2020-02-23 21:26:34,37.61,-122.49,64.99,71,75,19.46,broken clouds,0.0,0.0
512,Shimoda,JP,2020-02-23 21:24:51,34.67,138.95,37.0,77,0,13.89,clear sky,0.0,0.0
513,Bakchar,RU,2020-02-23 21:27:09,57.02,82.07,16.99,96,100,1.81,overcast clouds,0.0,0.0
514,Kiruna,SE,2020-02-23 21:27:09,67.86,20.23,30.2,74,100,12.75,overcast clouds,0.0,0.0
515,Tuggurt,SE,2020-02-23 21:27:09,67.86,20.23,30.2,74,100,12.75,overcast clouds,0.0,0.0
516,Rorvik,NO,2020-02-23 21:27:09,64.86,11.24,35.6,69,40,11.41,light shower snow,0.0,0.0
517,Dubai,AE,2020-02-23 21:27:08,25.26,55.3,75.2,73,41,5.82,scattered clouds,0.0,0.0
518,Guerrero Negro,MX,2020-02-23 21:27:10,27.98,-114.06,64.15,59,100,18.7,overcast clouds,0.0,0.0
519,Ghanzi,BW,2020-02-23 21:27:10,-21.57,21.78,68.23,89,100,4.61,light rain,0.56,0.0
520,Nouadhibou,MR,2020-02-23 21:27:10,20.93,-17.03,68.0,77,100,11.41,overcast clouds,0.0,0.0
521,Sexsmith,CA,2020-02-23 21:27:10,55.35,-118.79,27.0,73,75,5.82,broken clouds,0.0,0.0
522,Jalu,LY,2020-02-23 21:27:10,29.03,21.55,56.89,40,87,13.44,overcast clouds,0.0,0.0
523,Sabang,ID,2020-02-23 21:27:11,5.89,95.32,82.56,75,0,26.89,clear sky,0.0,0.0
524,Bojaya,ID,2020-02-23 21:27:11,5.89,95.32,82.56,75,0,26.89,clear sky,0.0,0.0
525,Yelizovo,RU,2020-02-23 21:26:34,53.19,158.38,21.2,57,40,11.18,scattered clouds,0.0,0.0
526,Deputatskiy,RU,2020-02-23 21:25:15,69.3,139.9,-21.6,96,0,3.11,clear sky,0.0,0.0
527,Boende,CD,2020-02-23 21:27:11,-0.22,20.87,76.15,77,50,3.96,scattered clouds,0.0,0.0
528,Zhanatas,CD,2020-02-23 21:27:11,-0.22,20.87,76.15,77,50,3.96,scattered clouds,0.0,0.0
529,Inta,RU,2020-02-23 21:27:12,66.03,60.17,28.38,83,100,18.88,overcast clouds,0.0,0.0
530,Maxixe,MZ,2020-02-23 21:26:58,-23.86,35.35,78.39,80,100,29.24,light rain,1.38,0.0
531,Wenatchee,US,2020-02-23 21:27:12,47.42,-120.31,50.0,45,1,23.04,light rain,0.0,0.0
532,Pitea,SE,2020-02-23 21:27:12,65.32,21.48,33.8,59,0,19.46,clear sky,0.0,0.0
533,Grand-Santi,GF,2020-02-23 21:27:12,4.25,-54.38,80.1,90,100,4.36,light rain,2.25,0.0
534,Walvis Bay,NA,2020-02-23 21:27:13,-22.96,14.51,64.0,88,10,6.93,clear sky,0.0,0.0
535,Yomitan,NA,2020-02-23 21:27:13,-22.96,14.51,64.0,88,10,6.93,clear sky,0.0,0.0
536,Mbandaka,CD,2020-02-23 21:27:13,0.05,18.26,76.24,90,100,3.56,light rain,0.75,0.0
537,Evensk,RU,2020-02-23 21:27:13,61.95,159.23,-2.9,96,100,5.66,light snow,0.0,0.25
538,Tarko-Sale,RU,2020-02-23 21:27:13,64.92,77.78,19.99,91,100,4.0,overcast clouds,0.0,0.0
539,Bonavista,CA,2020-02-23 21:27:14,48.65,-53.11,30.7,84,27,13.29,scattered clouds,0.0,0.0
540,Villa Del Rosario,CO,2020-02-23 21:27:14,7.83,-72.47,84.2,54,40,4.7,scattered clouds,0.0,0.0
541,Vestmanna,FO,2020-02-23 21:27:14,62.16,-7.17,37.4,55,1,23.04,clear sky,0.0,0.0
542,Dongli,CN,2020-02-23 21:27:14,23.57,116.82,55.4,93,0,14.5,clear sky,0.0,0.0
543,Agsu,CN,2020-02-23 21:27:14,23.57,116.82,55.4,93,0,14.5,clear sky,0.0,0.0
544,Asau,RO,2020-02-23 21:27:15,46.43,26.4,50.0,53,75,11.41,broken clouds,0.0,0.0
545,Kirakira,SB,2020-02-23 21:27:15,-10.45,161.92,79.66,84,5,5.55,clear sky,0.0,0.0
546,The Pas,CA,2020-02-23 21:23:33,53.83,-101.25,32.0,86,90,10.29,overcast clouds,0.0,0.0
547,Wagar,SD,2020-02-23 21:27:15,16.15,36.2,67.32,76,0,10.89,clear sky,0.0,0.0
548,Nelson Bay,AU,2020-02-23 21:27:15,-32.72,152.15,71.01,83,75,4.7,light rain,0.0,0.0
549,Hay River,CA,2020-02-23 21:27:16,60.82,-115.8,-2.2,77,75,3.36,light snow,0.0,0.0
550,Svetlaya,RU,2020-02-23 21:27:16,46.54,138.33,17.2,72,9,4.36,clear sky,0.0,0.0
551,Pinhao,BR,2020-02-23 21:27:16,-25.7,-51.66,73.4,58,53,2.89,broken clouds,0.0,0.0
552,Risod,IN,2020-02-23 21:27:16,19.97,76.78,74.59,39,0,5.23,clear sky,0.0,0.0
553,Albuquerque,US,2020-02-23 21:27:16,35.08,-106.65,51.01,52,75,17.22,shower rain,0.0,0.0
554,Yantal,RU,2020-02-23 21:27:17,56.85,105.25,9.86,97,90,2.68,light snow,0.0,0.13
555,Northam,GB,2020-02-23 21:27:17,51.03,-4.22,48.0,87,75,3.36,light intensity drizzle,0.0,0.0
556,Cairns,AU,2020-02-23 21:27:17,-16.92,145.77,79.0,100,90,2.24,light rain,0.0,0.0
557,Chokurdakh,RU,2020-02-23 21:23:52,70.63,147.92,-20.96,97,77,2.82,broken clouds,0.0,0.0
558,Taos,US,2020-02-23 21:27:17,36.41,-105.57,39.99,64,90,13.87,light rain,0.0,0.0
559,Astoria,US,2020-02-23 21:27:17,46.19,-123.83,48.99,70,90,19.46,overcast clouds,0.0,0.0
560,Alyangula,AU,2020-02-23 21:27:18,-13.85,136.42,86.0,74,40,12.75,scattered clouds,0.0,0.0
561,Bali,ID,2020-02-23 21:27:18,-8.5,115.0,74.66,86,68,2.84,broken clouds,0.0,0.0
562,Edd,ER,2020-02-23 21:27:18,13.93,41.69,81.84,47,49,6.8,scattered clouds,0.0,0.0
563,San Quintin,MX,2020-02-23 21:27:18,30.48,-115.95,60.78,70,0,20.98,clear sky,0.0,0.0
564,Ugoofaaru,MV,2020-02-23 21:27:18,5.67,73.0,82.94,76,25,20.22,scattered clouds,0.0,0.0
565,Eurajoki,FI,2020-02-23 21:27:19,61.3,21.75,37.4,69,75,11.41,broken clouds,0.0,0.0
566,Sidi Ali,DZ,2020-02-23 21:27:19,36.1,0.42,54.54,71,0,3.02,clear sky,0.0,0.0
567,Ahipara,NZ,2020-02-23 21:35:28,-35.17,173.17,75.99,75,0,3.0,clear sky,0.0,0.0
568,Nuuk,GL,2020-02-23 21:27:19,64.18,-51.72,15.8,85,87,11.41,light shower snow,0.0,0.0
569,Si Racha,TH,2020-02-23 21:27:19,13.17,100.93,87.01,73,20,3.36,mist,0.0,0.0
570,Scottsburgh,TH,2020-02-23 21:27:19,13.17,100.93,87.01,73,20,3.36,mist,0.0,0.0
571,Wanning,CN,2020-02-23 21:27:20,18.8,110.4,69.31,90,84,5.95,light rain,1.19,0.0
572,Broken Hill,AU,2020-02-23 21:27:20,-31.95,141.43,69.8,64,44,6.93,scattered clouds,0.0,0.0
573,Gannan,CN,2020-02-23 21:27:20,47.91,123.5,10.08,79,0,8.66,clear sky,0.0,0.0
574,Snyder,US,2020-02-23 21:27:20,32.72,-100.92,57.2,81,40,12.75,scattered clouds,0.0,0.0
575,Date,JP,2020-02-23 21:27:21,42.47,140.87,23.25,82,72,7.85,broken clouds,0.0,0.0
576,Ampanihy,MG,2020-02-23 21:27:21,-24.7,44.75,75.42,88,93,2.59,overcast clouds,0.0,0.0
577,Dingle,PH,2020-02-23 21:27:21,11.0,122.67,72.07,92,58,11.05,light rain,0.31,0.0
578,Boralday,KZ,2020-02-23 21:27:21,43.36,76.86,33.8,91,90,2.24,mist,0.0,0.0
579,Okhotsk,RU,2020-02-23 21:27:22,59.38,143.3,-14.96,77,16,7.9,few clouds,0.0,0.0
580,Urdzhar,RU,2020-02-23 21:27:22,59.38,143.3,-14.96,77,16,7.9,few clouds,0.0,0.0
581,Parsons,US,2020-02-23 21:27:22,37.34,-95.26,55.4,76,90,5.82,light rain,0.0,0.0
582,Geraldton,AU,2020-02-23 21:27:22,-28.77,114.6,71.6,94,0,1.12,clear sky,0.0,0.0
583,Xichang,CN,2020-02-23 21:27:22,27.9,102.26,36.23,92,0,5.19,clear sky,0.0,0.0
584,San Luis,AR,2020-02-23 21:24:06,-33.3,-66.34,85.14,30,0,16.6,clear sky,0.0,0.0
585,Bati,ET,2020-02-23 21:27:23,11.18,40.02,66.49,59,0,2.06,clear sky,0.0,0.0
586,Adjumani,UG,2020-02-23 21:27:23,3.38,31.79,80.6,41,5,0.49,clear sky,0.0,0.0
587,Lisala,CD,2020-02-23 21:27:23,2.15,21.52,74.16,50,11,2.62,few clouds,0.0,0.0
588,Doha,QA,2020-02-23 21:33:33,25.29,51.53,71.01,94,75,6.93,mist,0.0,0.0
589,Sao Felix Do Xingu,BR,2020-02-23 21:27:24,-6.64,-51.99,78.17,94,100,1.19,moderate rain,3.25,0.0
590,Kindu,CD,2020-02-23 21:27:24,-2.95,25.95,72.88,97,100,1.68,light rain,0.81,0.0
591,Yerbogachen,RU,2020-02-23 21:23:40,61.28,108.01,18.16,93,100,11.1,light snow,0.0,0.31
592,Riyadh,SA,2020-02-23 21:25:41,24.69,46.72,69.8,60,100,3.36,overcast clouds,0.0,0.0
593,Gorontalo,ID,2020-02-23 21:27:24,0.54,123.06,74.14,92,50,3.71,scattered clouds,0.0,0.0
594,Mackay,AU,2020-02-23 21:27:25,-21.15,149.2,79.0,88,90,12.75,overcast clouds,0.0,0.0
595,Pasni,PK,2020-02-23 21:27:25,25.26,63.47,69.44,65,0,4.25,clear sky,0.0,0.0
596,Kushiro,JP,2020-02-23 21:27:25,42.98,144.37,27.07,65,0,5.37,clear sky,0.0,0.0
597,Spring,US,2020-02-23 21:26:57,30.08,-95.42,70.0,63,90,6.93,overcast clouds,0.0,0.0
598,Nizhniy Kuranakh,RU,2020-02-23 21:25:47,58.84,125.49,8.2,96,99,2.91,light snow,0.0,0.31
599,Merrill,US,2020-02-23 21:27:25,45.18,-89.68,46.4,45,1,13.87,clear sky,0.0,0.0
600,Tezu,IN,2020-02-23 21:27:26,27.92,96.17,60.64,47,0,2.8,clear sky,0.0,0.0
601,Saint Anthony,US,2020-02-23 21:27:26,45.02,-93.22,45.0,52,1,16.11,clear sky,0.0,0.0
602,Kologriv,RU,2020-02-23 21:27:26,58.83,44.32,31.17,94,99,11.45,light snow,0.0,0.38
603,Dunedin,NZ,2020-02-23 21:35:35,-45.87,170.5,56.26,78,46,3.38,scattered clouds,0.0,0.0
604,Umzimvubu,NZ,2020-02-23 21:35:35,-45.87,170.5,56.26,78,46,3.38,scattered clouds,0.0,0.0
605,Lagoa,PT,2020-02-23 21:27:27,39.05,-27.98,60.49,79,4,12.68,clear sky,0.0,0.0
606,Williston,US,2020-02-23 21:27:27,48.15,-103.62,39.2,47,1,13.87,clear sky,0.0,0.0
607,Miraflores,MX,2020-02-23 21:27:27,19.22,-98.81,87.8,19,5,4.7,clear sky,0.0,0.0
608,Kununurra,AU,2020-02-23 21:27:27,-15.77,128.73,75.2,88,78,4.7,broken clouds,0.0,0.0
609,Glendora,US,2020-02-23 21:27:27,34.14,-117.87,69.8,67,90,4.97,overcast clouds,0.0,0.0
610,Nadvoitsy,RU,2020-02-23 21:27:28,63.87,34.32,32.09,84,100,12.41,overcast clouds,0.0,0.0
